[{"uid":"WSSS","name":"WSSS","icao":"WSSS","lat":1.3591666666666666,"lng":103.99111111111111,"alt":22,"iata":null},{"uid":"WSSL","name":"WSSL","icao":"WSSL","lat":1.4169444444444443,"lng":103.86777777777777,"alt":22,"iata":null},{"uid":"WIDD","name":"WIDD","icao":"WIDD","lat":1.1208333333333333,"lng":104.11861111111111,"alt":22,"iata":null},{"uid":"WIDN","name":"WIDN","icao":"WIDN","lat":0.9225,"lng":104.53222222222222,"alt":22,"iata":null},{"uid":"WMKJ","name":"WMKJ","icao":"WMKJ","lat":1.6388888888888888,"lng":103.67083333333333,"alt":135,"iata":null},{"uid":"WSAP","name":"WSAP","icao":"WSAP","lat":1.3605555555555555,"lng":103.90944444444445,"alt":65,"iata":null}]